{"type":"FeatureCollection", "features":[
{"type":"Feature","geometry":{"type":"Point","coordinates":[4.8445512,45.7548789]},"properties":{"Name":"De l'Autre CôTé du PonT","Adresse":"De l'Autre CôTé du PonT, 25 Cr Gambetta, 69003 Lyon, France"}},
{"type":"Feature","geometry":{"type":"Point","coordinates":[4.8467417,45.7542105]},"properties":{"Name":"Hopper","Adresse":"Hopper, 43 Cr Gambetta, 69003 Lyon, France"}},
{"type":"Feature","geometry":{"type":"Point","coordinates":[4.8454712,45.751852]},"properties":{"Name":"Le Bistrot des Fauves","Adresse":"Le Bistrot des Fauves, 29 Rue Saint-Michel, 69007 Lyon, France"}},
{"type":"Feature","geometry":{"type":"Point","coordinates":[4.8449127,45.751248]},"properties":{"Name":"L'Atenium","Adresse":"L'Atenium, 80 Rue Montesquieu, 69007 Lyon, France"}},
{"type":"Feature","geometry":{"type":"Point","coordinates":[4.8431866,45.7502741]},"properties":{"Name":"Le Bouillon Paradis","Adresse":"Le Bouillon Paradis, 58 Rue Salomon Reinach, 69007 Lyon, France"}},
{"type":"Feature","geometry":{"type":"Point","coordinates":[4.8424602,45.7509339]},"properties":{"Name":"Les Pralins","Adresse":"Les Pralins, 62 Rue Sébastien Gryphe, 69007 Lyon, France"}},
{"type":"Feature","geometry":{"type":"Point","coordinates":[4.8432525,45.7516019]},"properties":{"Name":"Le court circuit","Adresse":"Le Court-Circuit, 13 Rue Jangot, 69007 Lyon, France"}},
{"type":"Feature","geometry":{"type":"Point","coordinates":[4.8396205,45.7522551]},"properties":{"Name":"La Fourmilière","Adresse":"La Fourmilière, 15 Rue Salomon Reinach, 69007 Lyon, France"}},
{"type":"Feature","geometry":{"type":"Point","coordinates":[4.8399508,45.75317]},"properties":{"Name":"Livestation DIY","Adresse":"Livestation DIY - Lyon, 14 Rue de Bonald, 69007 Lyon, France"}},
{"type":"Feature","geometry":{"type":"Point","coordinates":[4.8431334,45.7547966]},"properties":{"Name":"La Faute aux Ours","Adresse":"La Faute aux Ours, 4 Gd Rue de la Guillotière, 69007 Lyon, France"}},
{"type":"Feature","geometry":{"type":"MultiLineString","coordinates":[[[4.844476,45.7547735],[4.84371,45.75504],[4.8437089,45.75504],[4.84363,45.75494],[4.8436,45.75491],[4.84353,45.75487],[4.84345,45.75483],[4.84325,45.75475],[4.8432459,45.7547508],[4.84335,45.75461],[4.84362,45.75431],[4.84378,45.75413],[4.84408,45.75384],[4.84413,45.75379],[4.84444,45.7535],[4.84466,45.75332],[4.8449,45.75314],[4.84509,45.75303],[4.84576,45.75266],[4.84578,45.75265],[4.84614,45.75243],[4.8461425,45.7524335],[4.84696,45.75392],[4.8469642,45.7539221],[4.84697,45.75402],[4.84695,45.75412],[4.84692,45.75423],[4.8469236,45.7542291],[4.8469236,45.7542291],[4.84692,45.75426],[4.84689,45.75445],[4.84671,45.75501],[4.8467075,45.7550102],[4.84601,45.75468],[4.84545,45.75442],[4.8454532,45.7544248],[4.84525,45.75432],[4.84507,45.75422],[4.84479,45.75409],[4.84463,45.75402],[4.84457,45.75399],[4.84437,45.7539],[4.84413,45.75379],[4.8441296,45.7537898],[4.84444,45.7535],[4.84466,45.75332],[4.8449,45.75314],[4.84509,45.75303],[4.8450905,45.7530259],[4.84436,45.75239],[4.8443616,45.7523888],[4.84499,45.75202],[4.8454,45.75179],[4.8453992,45.7517901],[4.8453992,45.7517901],[4.84546,45.75175],[4.8454647,45.751753],[4.84493,45.75134],[4.84485,45.75129],[4.8448538,45.751288],[4.8448538,45.751288],[4.84419,45.75081],[4.84337,45.75022],[4.8433665,45.7502189],[4.84323,45.75031],[4.8432335,45.7503081],[4.8432335,45.7503081],[4.84301,45.75045],[4.84246,45.75082],[4.84238,45.75087],[4.8423778,45.7508744],[4.8423778,45.7508744],[4.84246,45.75082],[4.842458,45.7508203],[4.84309,45.75134],[4.84332,45.75152],[4.843319,45.7515233],[4.84322,45.75158],[4.8432231,45.7515756],[4.8432231,45.7515756],[4.84292,45.75174],[4.84272,45.75182],[4.8427199,45.7518154],[4.84265,45.75179],[4.8425,45.75177],[4.84224,45.75174],[4.8422361,45.7517352],[4.84211,45.7516],[4.84203,45.7515],[4.8418,45.75124],[4.8417987,45.7512442],[4.84105,45.75156],[4.84086,45.75164],[4.84078,45.75167],[4.84076,45.75168],[4.84067,45.75172],[4.84048,45.75181],[4.84042,45.75184],[4.84039,45.75186],[4.84033,45.75188],[4.8403,45.75189],[4.84029,45.75191],[4.83958,45.75221],[4.839582,45.7522112],[4.839582,45.7522112],[4.8394,45.75229],[4.8394,45.7522891],[4.84,45.75315],[4.8399997,45.7531535],[4.8399997,45.7531535],[4.84007,45.75325],[4.84041,45.75375],[4.84076,45.75426],[4.84118,45.75485],[4.84143,45.7552],[4.84154,45.75536],[4.84154,45.755358],[4.84177,45.75528],[4.84229,45.7551],[4.84245,45.75505],[4.8424541,45.7550462],[4.84252,45.75513],[4.8425199,45.755132],[4.84261,45.7551],[4.84262,45.7551],[4.84269,45.75507],[4.84273,45.75506],[4.84275,45.75505],[4.84281,45.75505],[4.84284,45.75505],[4.84287,45.75505],[4.84307,45.75507],[4.8430682,45.7550672],[4.84321,45.75482],[4.8432086,45.7548172]]]},"properties":{"Name":"De l'Autre CôTé du PonT to La Faute aux Ours","number":1}}
]}
