{"type":"FeatureCollection","features":[{"type":"Feature","geometry":{"type":"Point","coordinates":[4.826617,45.7600914]},"properties":{"Name":"Lieu historique","Adresse":"1 Av. du Doyenné, 69005 Lyon, France"}},{"type":"Feature","geometry":{"type":"Point","coordinates":[4.826783,45.7609366]},"properties":{"Name":"Lieu historique","Adresse":"Place Saint-Jean, 69005 Lyon, France"}},{"type":"Feature","geometry":{"type":"Point","coordinates":[4.8286538,45.7617593]},"properties":{"Name":"Lieu historique","Adresse":"23 Pl. Paul Duquaire, 69005 Lyon, France"}},{"type":"Feature","geometry":{"type":"Point","coordinates":[4.8284388,45.7632102]},"properties":{"Name":"Lieu historique","Adresse":"5 Pl. de la Baleine, 69005 Lyon, France"}},{"type":"Feature","geometry":{"type":"Point","coordinates":[4.8273239,45.7626572]},"properties":{"Name":"Lieu historique","Adresse":"5-4 Pl. Neuve Saint-Jean, 69005 Lyon, France"}},{"type":"Feature","geometry":{"type":"Point","coordinates":[4.8276748,45.763905]},"properties":{"Name":"Lieu historique","Adresse":"The Charvet Clock, 1 Pl. du Petit Collège, 69005 Lyon, France"}},{"type":"Feature","geometry":{"type":"Point","coordinates":[4.8282696,45.7644834]},"properties":{"Name":"Lieu historique","Adresse":"Quartier Saint-Paul, 4 Pl. du Change, 69005 Lyon, France"}},{"type":"Feature","geometry":{"type":"Point","coordinates":[4.828649,45.7655325]},"properties":{"Name":"Lieu historique","Adresse":"2 Rue Louis Carrand, 69005 Lyon, France"}},{"type":"Feature","geometry":{"type":"Point","coordinates":[4.8271947,45.7660247]},"properties":{"Name":"Lieu historique","Adresse":"11bis Pl. Saint-Paul, 69005 Lyon, France"}},{"type":"Feature","geometry":{"type":"MultiLineString","coordinates":[[[4.8266136,45.7600923],[4.8265325,45.7602739],[4.8266255,45.7605815],[4.8266785,45.7605762],[4.8268885,45.7609041],[4.8270135,45.7611014],[4.827264,45.7616261],[4.8285809,45.7613418],[4.8286538,45.7617593],[4.8288216,45.7621676],[4.8282067,45.7622946],[4.8284388,45.7632102],[4.8284387,45.7632999],[4.828017,45.7633008],[4.8276392,45.7625338],[4.8273259,45.7626596],[4.8270696,45.7627625],[4.8275982,45.7634786],[4.8276748,45.763905],[4.8276828,45.7639645],[4.8282418,45.7640141],[4.8283086,45.7643942],[4.8282968,45.7644851],[4.8282889,45.7645466],[4.828847,45.7645889],[4.8288883,45.7648217],[4.829081,45.7647759],[4.8290243,45.7655324],[4.8286599,45.7654885],[4.8281451,45.7654001],[4.8276704,45.7657859],[4.8273101,45.7660501]]]},"properties":{"Name":"Vieux Lyon Historique","number":1}}]}